{"placemarks":[{"address":"Sunny Slope Dr 2345, 78703 Austin","coordinates":[-97.76213,30.29919,0],"engineType":"CE","exterior":"GOOD","fuel":75,"interior":"GOOD","name":"CK9 T423","vin":"WMEEJ3BA5AK402792"},{"address":"E 10th St 300, 78701 Austin","coordinates":[-97.73878,30.27111,0],"engineType":"CE","exterior":"UNACCEPTABLE","fuel":93,"interior":"UNACCEPTABLE","name":"CK9 T393","vin":"WMEEJ3BAXAK402805"},{"address":"Greystone Dr 3831, 78731 Austin","coordinates":[-97.75721,30.36069,0],"engineType":"CE","exterior":"GOOD","fuel":90,"interior":"GOOD","name":"CK9 T400","vin":"WMEEJ3BAXAK402951"},{"address":"W 31st St 1011, 78705 Austin","coordinates":[-97.74638,30.30032,0],"engineType":"CE","exterior":"GOOD","fuel":75,"interior":"UNACCEPTABLE","name":"CK9 T145","vin":"WMEEJ3BA1AK418620"},{"address":"Mills Ave 3648, 78731 Austin","coordinates":[-97.74883,30.3064,0],"engineType":"CE","exterior":"GOOD","fuel":78,"interior":"UNACCEPTABLE","name":"CK9 T261","vin":"WMEEJ3BAXAK418096"},{"address":"E 6th St 1407, 78702 Austin","coordinates":[-97.72836,30.26373,0],"engineType":"CE","exterior":"GOOD","fuel":69,"interior":"GOOD","name":"CK9 T129","vin":"WMEEJ3BA5AK418281"},{"address":"Crestview Station","coordinates":[-97.71947,30.33886,0],"engineType":"CE","exterior":"GOOD","fuel":57,"interior":"GOOD","name":"CK9 T152","vin":"WMEEJ3BA1AK418309"},{"address":"Santa Fe Dr 3448, 78741 Austin","coordinates":[-97.7375,30.21885,0],"engineType":"CE","exterior":"GOOD","fuel":78,"interior":"GOOD","name":"CK9 T267","vin":"WMEEJ3BA0AK418219"},{"address":"Barton Springs Rd 297, 78704 Austin","coordinates":[-97.74764,30.25877,0],"engineType":"CE","exterior":"GOOD","fuel":100,"interior":"GOOD","name":"CK9 T191","vin":"WMEEJ3BA7AK418637"},{"address":"The Parking Spot Overflow","coordinates":[-97.67518,30.22086,0],"engineType":"CE","exterior":"GOOD","fuel":54,"interior":"GOOD","name":"CK9 T202","vin":"WMEEJ3BA5AK416465"},{"address":"E 5th St 153, 78701 Austin","coordinates":[-97.74246,30.26688,0],"engineType":"CE","exterior":"GOOD","fuel":24,"interior":"GOOD","name":"CK9 T396","vin":"WMEEJ3BA8AK416525"},{"address":"Wood Hollow Dr 7254, 78731 Austin","coordinates":[-97.75137,30.35633,0],"engineType":"CE","exterior":"UNACCEPTABLE","fuel":100,"interior":"UNACCEPTABLE","name":"DX6 C444","vin":"WMEEJ3BA6AK418614"},{"address":"E Riverside Dr 4740, 78741 Austin","coordinates":[-97.71864,30.23227,0],"engineType":"CE","exterior":"GOOD","fuel":100,"interior":"GOOD","name":"CK9 T137","vin":"WMEEJ3BA2AK418478"},{"address":"Greenfield Pky 2372, 78741 Austin","coordinates":[-97.73847,30.23195,0],"engineType":"CE","exterior":"GOOD","fuel":100,"interior":"GOOD","name":"CK9 T165","vin":"WMEEJ3BA0AK418401"},{"address":"Hunt Trl 2896, 78757 Austin","coordinates":[-97.74618,30.34324,0],"engineType":"CE","exterior":"GOOD","fuel":33,"interior":"GOOD","name":"CK9 T221","vin":"WMEEJ3BA9AK417926"},{"address":"W 4th St 184, 78701 Austin","coordinates":[-97.74456,30.26656,0],"engineType":"CE","exterior":"GOOD","fuel":100,"interior":"GOOD","name":"CK9 T274","vin":"WMEEJ3BA5AK418071"},{"address":"Shoal Creek Blvd 1544, 78701 Austin","coordinates":[-97.75024,30.28145,0],"engineType":"CE","exterior":"GOOD","fuel":18,"interior":"GOOD","name":"CK9 T194","vin":"WMEEJ3BA9AK418364"},{"address":"Far West Blvd 3430, 78731 Austin","coordinates":[-97.75076,30.35258,0],"engineType":"CE","exterior":"GOOD","fuel":39,"interior":"GOOD","name":"CK9 T213","vin":"WMEEJ3BA5AK416871"},{"address":"W 4th St 205, 78701 Austin","coordinates":[-97.74515,30.2666,0],"engineType":"CE","exterior":"GOOD","fuel":100,"interior":"UNACCEPTABLE","name":"CK9 T206","vin":"WMEEJ3BA1AK416561"},{"address":"Shoal Creek Blvd 1114, 78701 Austin","coordinates":[-97.75098,30.27599,0],"engineType":"CE","exterior":"GOOD","fuel":69,"interior":"GOOD","name":"CK9 T211","vin":"WMEEJ3BA3AK416822"},{"address":"Grove Blvd 1012, 78741 Austin","coordinates":[-97.70392,30.23583,0],"engineType":"CE","exterior":"GOOD","fuel":100,"interior":"GOOD","name":"CK9 T268","vin":"WMEEJ3BAXAK416686"},{"address":"E 9th St 309, 78701 Austin","coordinates":[-97.73985,30.27033,0],"engineType":"CE","exterior":"GOOD","fuel":51,"interior":"GOOD","name":"CK9 T131","vin":"WMEEJ3BA2AK416603"},{"address":"S Lamar Blvd 3101, 78704 Austin","coordinates":[-97.78454,30.24181,0],"engineType":"CE","exterior":"GOOD","fuel":100,"interior":"UNACCEPTABLE","name":"CK9 T201","vin":"WMEEJ3BA2AK416665"},{"address":"E 9th St 308, 78701 Austin","coordinates":[-97.73982,30.27037,0],"engineType":"CE","exterior":"GOOD","fuel":60,"interior":"UNACCEPTABLE","name":"BYC 3554","vin":"WMEEJ3BA1AK416768"},{"address":"Barton Hills Dr 2202, 78704 Austin","coordinates":[-97.7897,30.25358,0],"engineType":"CE","exterior":"GOOD","fuel":57,"interior":"GOOD","name":"CK9 T173","vin":"WMEEJ3BA8AK416623"},{"address":"Parkway 1210, 78703 Austin","coordinates":[-97.75135,30.27783,0],"engineType":"CE","exterior":"GOOD","fuel":100,"interior":"GOOD","name":"CK9 T210","vin":"WMEEJ3BA8AK416797"},{"address":"Hancock Dr 2152, 78756 Austin","coordinates":[-97.74067,30.32316,0],"engineType":"CE","exterior":"GOOD","fuel":48,"interior":"GOOD","name":"CK9 T208","vin":"WMEEJ3BA3AK416576"},{"address":"Parker Ln 3442, 78741 Austin","coordinates":[-97.74282,30.22031,0],"engineType":"CE","exterior":"UNACCEPTABLE","fuel":48,"interior":"UNACCEPTABLE","name":"CK9 T200","vin":"WMEEJ3BA2AK416598"},{"address":"Comal St 96, 78702 Austin","coordinates":[-97.7287,30.25841,0],"engineType":"CE","exterior":"GOOD","fuel":100,"interior":"GOOD","name":"CK9 T132","vin":"WMEEJ3BA8AK418338"},{"address":"E 5th St 133, 78701 Austin","coordinates":[-97.74275,30.26698,0],"engineType":"CE","exterior":"GOOD","fuel":54,"interior":"GOOD","name":"CK9 T185","vin":"WMEEJ3BA3AK418490"},{"address":"San Jacinto Blvd 1276, 78701 Austin","coordinates":[-97.73794,30.27422,0],"engineType":"CE","exterior":"GOOD","fuel":100,"interior":"GOOD","name":"CK9 T220","vin":"WMEEJ3BA3AK418232"},{"address":"Lavaca St 628, 78701 Austin","coordinates":[-97.7451,30.269,0],"engineType":"CE","exterior":"GOOD","fuel":45,"interior":"GOOD","name":"CK9 T218","vin":"WMEEJ3BA3AK418084"},{"address":"Capitol Ct 998, 78756 Austin","coordinates":[-97.73361,30.31965,0],"engineType":"CE","exterior":"UNACCEPTABLE","fuel":54,"interior":"GOOD","name":"BYC 8041","vin":"WMEEJ3BA3AK418182"},{"address":"Shoal Creek Blvd 7658, 78757 Austin","coordinates":[-97.74002,30.35597,0],"engineType":"CE","exterior":"UNACCEPTABLE","fuel":100,"interior":"GOOD","name":"CK9 T133","vin":"WMEEJ3BAXAK418471"},{"address":"Dean Keaton and Whitis","coordinates":[-97.74003,30.28978,0],"engineType":"CE","exterior":"GOOD","fuel":81,"interior":"GOOD","name":"CK9 T148","vin":"WMEEJ3BA1AK418553"},{"address":"W 6th St 364, 78701 Austin","coordinates":[-97.7459,30.26898,0],"engineType":"CE","exterior":"GOOD","fuel":75,"interior":"GOOD","name":"CK9 T134","vin":"WMEEJ3BA9AK418686"},{"address":"Houston St 1268, 78756 Austin","coordinates":[-97.73317,30.32586,0],"engineType":"CE","exterior":"GOOD","fuel":100,"interior":"GOOD","name":"CK9 T397","vin":"WMEEJ3BA7AK417116"},{"address":"ACC Riverside Campus I","coordinates":[-97.70498,30.23517,0],"engineType":"CE","exterior":"GOOD","fuel":66,"interior":"GOOD","name":"CK9 T413","vin":"WMEEJ3BAXAK416980"},{"address":"E 4th St 239, 78701 Austin","coordinates":[-97.74142,30.26564,0],"engineType":"CE","exterior":"GOOD","fuel":100,"interior":"GOOD","name":"CK9 T203","vin":"WMEEJ3BA1AK416706"},{"address":"Sunshine Dr 4934, 78756 Austin","coordinates":[-97.73491,30.31852,0],"engineType":"CE","exterior":"UNACCEPTABLE","fuel":100,"interior":"UNACCEPTABLE","name":"CK9 T405","vin":"WMEEJ3BA8AK416850"},{"address":"Monroe St W 1129, 78704 Austin","coordinates":[-97.76119,30.25172,0],"engineType":"CE","exterior":"GOOD","fuel":27,"interior":"GOOD","name":"CK9 T408","vin":"WMEEJ3BA4AK416814"},{"address":"Lavaca St 567, 78701 Austin","coordinates":[-97.74525,30.26842,0],"engineType":"CE","exterior":"UNACCEPTABLE","fuel":36,"interior":"UNACCEPTABLE","name":"CK9 T289","vin":"WMEEJ3BA9AK416789"},{"address":"E 9th St 326, 78701 Austin","coordinates":[-97.73969,30.27048,0],"engineType":"CE","exterior":"GOOD","fuel":96,"interior":"GOOD","name":"CK9 T282","vin":"WMEEJ3BA0AK416972"},{"address":"The Parking Spot","coordinates":[-97.67598,30.22049,0],"engineType":"CE","exterior":"GOOD","fuel":100,"interior":"GOOD","name":"CK9 T331","vin":"WMEEJ3BA7AK416726"},{"address":"W 8th St 369, 78701 Austin","coordinates":[-97.74531,30.27068,0],"engineType":"CE","exterior":"GOOD","fuel":54,"interior":"GOOD","name":"CK9 T179","vin":"WMEEJ3BAXAK416610"},{"address":"Jeff Davis Ave 5424, 78756 Austin","coordinates":[-97.73862,30.32728,0],"engineType":"CE","exterior":"GOOD","fuel":75,"interior":"GOOD","name":"CK9 T386","vin":"WMEEJ3BA3AK417985"},{"address":"Shadow Hill Dr 7401, 78731 Austin","coordinates":[-97.7497,30.35728,0],"engineType":"CE","exterior":"GOOD","fuel":60,"interior":"GOOD","name":"CK9 T389","vin":"WMEEJ3BA9AK418090"},{"address":"Kasper St 6261, 78741 Austin","coordinates":[-97.70349,30.22594,0],"engineType":"CE","exterior":"GOOD","fuel":30,"interior":"GOOD","name":"CK9 T223","vin":"WMEEJ3BA0AK417958"},{"address":"Esperanza Xing 3026, 78758 Austin","coordinates":[-97.72157,30.39913,0],"engineType":"CE","exterior":"GOOD","fuel":100,"interior":"GOOD","name":"CK9 T143","vin":"WMEEJ3BA2AK418433"},{"address":"Exposition Blvd 2456, 78703 Austin","coordinates":[-97.76778,30.29765,0],"engineType":"CE","exterior":"GOOD","fuel":57,"interior":"GOOD","name":"CK9 T153","vin":"WMEEJ3BA0AK418592"},{"address":"W 39th St 1221, 78756 Austin","coordinates":[-97.74439,30.30716,0],"engineType":"CE","exterior":"UNACCEPTABLE","fuel":45,"interior":"UNACCEPTABLE","name":"CK9 T142","vin":"WMEEJ3BA5AK418586"},{"address":"Kay St 3308, 78702 Austin","coordinates":[-97.69914,30.26998,0],"engineType":"CE","exterior":"GOOD","fuel":54,"interior":"GOOD","name":"CK9 T164","vin":"WMEEJ3BA8AK418260"},{"address":"Rio Grande St 1802, 78701 Austin","coordinates":[-97.74508,30.28177,0],"engineType":"CE","exterior":"GOOD","fuel":36,"interior":"GOOD","name":"CK9 T296","vin":"WMEEJ3BAXAK416509"},{"address":"Francis Ave 1769, 78703 Austin","coordinates":[-97.76552,30.27752,0],"engineType":"CE","exterior":"GOOD","fuel":66,"interior":"GOOD","name":"CK9 T217","vin":"WMEEJ3BA4AK418059"},{"address":"Highland Business Center","coordinates":[-97.71235,30.32373,0],"engineType":"CE","exterior":"GOOD","fuel":100,"interior":"GOOD","name":"CK9 T171","vin":"WMEEJ3BA8AK418422"},{"address":"E Dean Keeton St 803, 78705 Austin","coordinates":[-97.72939,30.28842,0],"engineType":"CE","exterior":"UNACCEPTABLE","fuel":27,"interior":"UNACCEPTABLE","name":"CK9 T312","vin":"WMEEJ3BA6AK418208"},{"address":"The Edge Apartments","coordinates":[-97.7187,30.23515,0],"engineType":"CE","exterior":"GOOD","fuel":39,"interior":"GOOD","name":"CK9 T241","vin":"WMEEJ3BA1AK417967"},{"address":"Brazos St 172, 78701 Austin","coordinates":[-97.74308,30.26371,0],"engineType":"CE","exterior":"GOOD","fuel":100,"interior":"GOOD","name":"CK9 T380","vin":"WMEEJ3BAXAK416879"},{"address":"E 7th St 247, 78701 Austin","coordinates":[-97.74065,30.2684,0],"engineType":"CE","exterior":"GOOD","fuel":100,"interior":"GOOD","name":"CK9 T394","vin":"WMEEJ3BA7AK416533"},{"address":"Webberville Rd 3230, 78702 Austin","coordinates":[-97.7074,30.26823,0],"engineType":"CE","exterior":"GOOD","fuel":42,"interior":"GOOD","name":"CK9 T376","vin":"WMEEJ3BA2AK416942"},{"address":"W 9th St 129, 78701 Austin","coordinates":[-97.74216,30.27084,0],"engineType":"CE","exterior":"GOOD","fuel":100,"interior":"UNACCEPTABLE","name":"DX6 C445","vin":"WMEEJ3BA3AK416805"},{"address":"Hogan Ave 5961, 78741 Austin","coordinates":[-97.70181,30.23661,0],"engineType":"CE","exterior":"GOOD","fuel":100,"interior":"GOOD","name":"CK9 T369","vin":"WMEEJ3BA6AK416569"},{"address":"Burnet Ln 6624, 78757 Austin","coordinates":[-97.73714,30.34248,0],"engineType":"CE","exterior":"GOOD","fuel":42,"interior":"UNACCEPTABLE","name":"CK9 T247","vin":"WMEEJ3BA0AK416678"},{"address":"E 7th St 217, 78701 Austin","coordinates":[-97.74095,30.26852,0],"engineType":"CE","exterior":"GOOD","fuel":45,"interior":"GOOD","name":"CK9 T244","vin":"WMEEJ3BA0AK417359"},{"address":"Pendleton Ln 5560, 78723 Austin","coordinates":[-97.67616,30.29865,0],"engineType":"CE","exterior":"GOOD","fuel":100,"interior":"GOOD","name":"CK9 T341","vin":"WMEEJ3BA0AK416714"},{"address":"E 4th St 1469, 78702 Austin","coordinates":[-97.72868,30.26161,0],"engineType":"CE","exterior":"UNACCEPTABLE","fuel":30,"interior":"GOOD","name":"CK9 T278","vin":"WMEEJ3BA0AK416485"},{"address":"Wood Hollow Dr 7214, 78731 Austin","coordinates":[-97.75277,30.35604,0],"engineType":"CE","exterior":"GOOD","fuel":100,"interior":"GOOD","name":"CK9 T297","vin":"WMEEJ3BA9AK416887"},{"address":"W 13th St 1461, 78703 Austin","coordinates":[-97.75622,30.28009,0],"engineType":"CE","exterior":"GOOD","fuel":66,"interior":"GOOD","name":"CK9 T302","vin":"WMEEJ3BA5AK417941"},{"address":"Highland Business Center","coordinates":[-97.71235,30.32373,0],"engineType":"CE","exterior":"GOOD","fuel":100,"interior":"GOOD","name":"CK9 T286","vin":"WMEEJ3BA4AK416926"},{"address":"Lavaca St 616, 78701 Austin","coordinates":[-97.74527,30.26893,0],"engineType":"CE","exterior":"GOOD","fuel":24,"interior":"GOOD","name":"CK9 T321","vin":"WMEEJ3BA6AK418015"},{"address":"Kerbey Ln 3590, 78731 Austin","coordinates":[-97.75046,30.30777,0],"engineType":"CE","exterior":"GOOD","fuel":39,"interior":"GOOD","name":"CK9 T407","vin":"WMEEJ3BA5AK417132"},{"address":"Crestview Station","coordinates":[-97.71947,30.33886,0],"engineType":"CE","exterior":"UNACCEPTABLE","fuel":18,"interior":"GOOD","name":"CK9 T374","vin":"WMEEJ3BA0AK417460"},{"address":"ACC Riverside Campus I","coordinates":[-97.70498,30.23517,0],"engineType":"CE","exterior":"GOOD","fuel":48,"interior":"GOOD","name":"CK9 T332","vin":"WMEEJ3BA8AK418131"},{"address":"Ruth Ave 1523, 78757 Austin","coordinates":[-97.72961,30.33901,0],"engineType":"CE","exterior":"GOOD","fuel":100,"interior":"GOOD","name":"CK9 T309","vin":"WMEEJ3BA6AK416698"},{"address":"Philomena St 1268, 78723 Austin","coordinates":[-97.70955,30.30387,0],"engineType":"CE","exterior":"GOOD","fuel":100,"interior":"GOOD","name":"CK9 T344","vin":"WMEEJ3BA9AK416985"},{"address":"Mariposa Dr 1601, 78741 Austin","coordinates":[-97.73776,30.23677,0],"engineType":"CE","exterior":"GOOD","fuel":27,"interior":"GOOD","name":"CK9 T235","vin":"WMEEJ3BA2AK416858"},{"address":"Chimney Cnrs 7503, 78731 Austin","coordinates":[-97.75743,30.36144,0],"engineType":"CE","exterior":"GOOD","fuel":75,"interior":"GOOD","name":"CK9 T418","vin":"WMEEJ3BA1AK416690"},{"address":"Shoal Creek Blvd 1742, 78701 Austin","coordinates":[-97.75092,30.28273,0],"engineType":"CE","exterior":"UNACCEPTABLE","fuel":100,"interior":"GOOD","name":"CK9 T358","vin":"WMEEJ3BA6AK416555"},{"address":"San Jacinto Blvd 962, 78701 Austin","coordinates":[-97.73921,30.27082,0],"engineType":"CE","exterior":"GOOD","fuel":24,"interior":"GOOD","name":"CK9 T366","vin":"WMEEJ3BA5AK418118"},{"address":"Highland Business Center","coordinates":[-97.71235,30.32373,0],"engineType":"CE","exterior":"GOOD","fuel":93,"interior":"GOOD","name":"CK9 T382","vin":"WMEEJ3BAXAK417997"},{"address":"Spicewood Springs Rd 8623, 78759 Austin","coordinates":[-97.77366,30.4332,0],"engineType":"CE","exterior":"UNACCEPTABLE","fuel":51,"interior":"UNACCEPTABLE","name":"CK9 T135","vin":"WMEEJ3BA5AK418345"},{"address":"Banister Ln 1171, 78704 Austin","coordinates":[-97.77676,30.22984,0],"engineType":"CE","exterior":"GOOD","fuel":100,"interior":"GOOD","name":"CK9 T154","vin":"WMEEJ3BA6AK418371"},{"address":"9th and Colorado","coordinates":[-97.74325,30.27106,0],"engineType":"CE","exterior":"GOOD","fuel":100,"interior":"GOOD","name":"CK9 T299","vin":"WMEEJ3BA6AK418144"},{"address":"Brazos St 458, 78701 Austin","coordinates":[-97.74192,30.26639,0],"engineType":"CE","exterior":"GOOD","fuel":57,"interior":"GOOD","name":"CK9 T216","vin":"WMEEJ3BA1AK418035"},{"address":"ACC Riverside Campus II","coordinates":[-97.70185,30.23657,0],"engineType":"CE","exterior":"GOOD","fuel":33,"interior":"GOOD","name":"CK9 T333","vin":"WMEEJ3BA0AK418169"},{"address":"Wood Hollow Dr 7186, 78731 Austin","coordinates":[-97.75206,30.35508,0],"engineType":"CE","exterior":"UNACCEPTABLE","fuel":30,"interior":"GOOD","name":"CK9 T174","vin":"WMEEJ3BA6AK418726"},{"address":"E Willie Nelson Blvd 237, 78701 Austin","coordinates":[-97.74246,30.26384,0],"engineType":"CE","exterior":"GOOD","fuel":84,"interior":"GOOD","name":"CK9 T195","vin":"WMEEJ3BA9AK418428"},{"address":"Friar Tuck Ln 2640, 78704 Austin","coordinates":[-97.75184,30.23368,0],"engineType":"CE","exterior":"GOOD","fuel":57,"interior":"GOOD","name":"CK9 T308","vin":"WMEEJ3BA4AK416649"},{"address":"Sunshine Dr 5516, 78756 Austin","coordinates":[-97.73053,30.3248,0],"engineType":"CE","exterior":"GOOD","fuel":100,"interior":"GOOD","name":"CK9 T364","vin":"WMEEJ3BA9AK416615"},{"address":"The Parking Spot","coordinates":[-97.67598,30.22049,0],"engineType":"CE","exterior":"GOOD","fuel":66,"interior":"GOOD","name":"CK9 T420","vin":"WMEEJ3BA3AK416657"},{"address":"S Pleasant Valley Rd 1113, 78741 Austin","coordinates":[-97.71634,30.24075,0],"engineType":"CE","exterior":"GOOD","fuel":75,"interior":"GOOD","name":"CK9 T125","vin":"WMEEJ3BA7AK416631"},{"address":"Spyglass Dr 1810, 78746 Austin","coordinates":[-97.79141,30.25941,0],"engineType":"CE","exterior":"UNACCEPTABLE","fuel":60,"interior":"UNACCEPTABLE","name":"CK9 T295","vin":"WMEEJ3BA6AK416751"},{"address":"Campbell St 566, 78703 Austin","coordinates":[-97.76445,30.27553,0],"engineType":"CE","exterior":"GOOD","fuel":81,"interior":"UNACCEPTABLE","name":"CK9 T236","vin":"WMEEJ3BA2AK416892"},{"address":"Barbara St 2099, 78757 Austin","coordinates":[-97.72941,30.35286,0],"engineType":"CE","exterior":"GOOD","fuel":100,"interior":"GOOD","name":"CK9 T345","vin":"WMEEJ3BA7AK416581"},{"address":"Strandtman Cv 70, 78702 Austin","coordinates":[-97.69561,30.25023,0],"engineType":"CE","exterior":"GOOD","fuel":33,"interior":"UNACCEPTABLE","name":"CK9 T318","vin":"WMEEJ3BA9AK418042"},{"address":"Lavaca St 556, 78701 Austin","coordinates":[-97.74535,30.26838,0],"engineType":"CE","exterior":"GOOD","fuel":69,"interior":"GOOD","name":"CK9 T214","vin":"WMEEJ3BA1AK418004"},{"address":"W 17th St 453, 78701 Austin","coordinates":[-97.7429,30.27987,0],"engineType":"CE","exterior":"GOOD","fuel":69,"interior":"GOOD","name":"CK9 T356","vin":"WMEEJ3BAXAK416445"},{"address":"Esperanza Xing 3234, 78758 Austin","coordinates":[-97.72412,30.40006,0],"engineType":"CE","exterior":"GOOD","fuel":100,"interior":"GOOD","name":"CK9 T265","vin":"WMEEJ3BA6AK418029"},{"address":"Mildred St 20, 78702 Austin","coordinates":[-97.72093,30.25189,0],"engineType":"CE","exterior":"GOOD","fuel":100,"interior":"GOOD","name":"CK9 T285","vin":"WMEEJ3BA6AK417916"},{"address":"Pasadena Dr 2079, 78757 Austin","coordinates":[-97.73226,30.34828,0],"engineType":"CE","exterior":"GOOD","fuel":66,"interior":"GOOD","name":"CK9 T391","vin":"WMEEJ3BA4AK416439"},{"address":"New York Ave 1720, 78702 Austin","coordinates":[-97.72152,30.27244,0],"engineType":"CE","exterior":"GOOD","fuel":100,"interior":"GOOD","name":"CK9 T422","vin":"WMEEJ3BA6AK417107"},{"address":"Hart Ln 7233, 78731 Austin","coordinates":[-97.75511,30.35603,0],"engineType":"CE","exterior":"GOOD","fuel":57,"interior":"GOOD","name":"BTF 6294","vin":"WMEEJ3BA5AK417275"},{"address":"Bouldin Ave 436, 78704 Austin","coordinates":[-97.7538,30.25899,0],"engineType":"CE","exterior":"GOOD","fuel":100,"interior":"GOOD","name":"CK9 T249","vin":"WMEEJ3BA5AK417258"},{"address":"Hardy Dr 7860, 78757 Austin","coordinates":[-97.72742,30.35362,0],"engineType":"CE","exterior":"GOOD","fuel":100,"interior":"GOOD","name":"CJM 1421","vin":"WMEEJ3BA9AK417053"},{"address":"Tom Miller St 2836, 78723 Austin","coordinates":[-97.69958,30.29005,0],"engineType":"CE","exterior":"GOOD","fuel":100,"interior":"GOOD","name":"CK9 T424","vin":"WMEEJ3BA4AK417073"},{"address":"E 6th St 1283, 78702 Austin","coordinates":[-97.72964,30.26415,0],"engineType":"CE","exterior":"GOOD","fuel":84,"interior":"GOOD","name":"CK9 T373","vin":"WMEEJ3BA2AK416469"},{"address":"Congress Ave 728, 78701 Austin","coordinates":[-97.74249,30.26931,0],"engineType":"CE","exterior":"UNACCEPTABLE","fuel":63,"interior":"UNACCEPTABLE","name":"CK9 T263","vin":"WMEEJ3BA4AK417509"},{"address":"Rosewood Ave 2028, 78702 Austin","coordinates":[-97.71746,30.26994,0],"engineType":"CE","exterior":"GOOD","fuel":90,"interior":"GOOD","name":"CK9 T387","vin":"WMEEJ3BA2AK417301"},{"address":"JJ Seabrook Dr 1874, 78721 Austin","coordinates":[-97.69055,30.28439,0],"engineType":"CE","exterior":"GOOD","fuel":81,"interior":"GOOD","name":"CK9 T259","vin":"WMEEJ3BA8AK418047"},{"address":"TX-71 W, 78741 Austin","coordinates":[-97.74384,30.21674,0],"engineType":"CE","exterior":"GOOD","fuel":42,"interior":"GOOD","name":"CK9 T322","vin":"WMEEJ3BA4AK417980"},{"address":"Sterzing St 430, 78704 Austin","coordinates":[-97.76306,30.26448,0],"engineType":"CE","exterior":"GOOD","fuel":48,"interior":"GOOD","name":"CK9 T277","vin":"WMEEJ3BA3AK416772"},{"address":"Dean Keaton and Whitis","coordinates":[-97.74003,30.28978,0],"engineType":"CE","exterior":"GOOD","fuel":75,"interior":"GOOD","name":"CK9 T252","vin":"WMEEJ3BA5AK417342"},{"address":"Esperanza Xing 3022, 78758 Austin","coordinates":[-97.72145,30.39904,0],"engineType":"CE","exterior":"GOOD","fuel":42,"interior":"GOOD","name":"CK9 T354","vin":"WMEEJ3BA0AK417023"},{"address":"E 9th St 359, 78701 Austin","coordinates":[-97.73964,30.27017,0],"engineType":"CE","exterior":"GOOD","fuel":93,"interior":"GOOD","name":"CK9 T414","vin":"WMEEJ3BA7AK417164"},{"address":"E 6th St 715, 78701 Austin","coordinates":[-97.73549,30.26592,0],"engineType":"CE","exterior":"GOOD","fuel":18,"interior":"GOOD","name":"CK9 T325","vin":"WMEEJ3BA7AK417908"},{"address":"Kinney Ave 628, 78704 Austin","coordinates":[-97.76274,30.26101,0],"engineType":"CE","exterior":"GOOD","fuel":96,"interior":"GOOD","name":"CK9 T342","vin":"WMEEJ3BAXAK417448"},{"address":"McKinley Ave 1674, 78702 Austin","coordinates":[-97.70316,30.28016,0],"engineType":"CE","exterior":"GOOD","fuel":100,"interior":"GOOD","name":"CK9 T232","vin":"WMEEJ3BA3AK418053"},{"address":"Highland Business Center","coordinates":[-97.71235,30.32373,0],"engineType":"CE","exterior":"UNACCEPTABLE","fuel":48,"interior":"GOOD","name":"CK9 T326","vin":"WMEEJ3BA6AK417317"},{"address":"Crestview Station","coordinates":[-97.71947,30.33886,0],"engineType":"CE","exterior":"GOOD","fuel":90,"interior":"GOOD","name":"CK9 T350","vin":"WMEEJ3BA8AK416461"},{"address":"Far West Blvd 3432, 78731 Austin","coordinates":[-97.75071,30.35279,0],"engineType":"CE","exterior":"GOOD","fuel":24,"interior":"UNACCEPTABLE","name":"CK9 T363","vin":"WMEEJ3BA8AK416637"},{"address":"Kasper St 6265, 78741 Austin","coordinates":[-97.70344,30.22591,0],"engineType":"CE","exterior":"GOOD","fuel":45,"interior":"GOOD","name":"CK9 T233","vin":"WMEEJ3BA4AK417333"},{"address":"Brazos St 658, 78701 Austin","coordinates":[-97.74126,30.26825,0],"engineType":"CE","exterior":"GOOD","fuel":100,"interior":"GOOD","name":"CK9 T228","vin":"WMEEJ3BA7AK416502"},{"address":"W 5th St 303, 78701 Austin","coordinates":[-97.74581,30.26783,0],"engineType":"CE","exterior":"GOOD","fuel":54,"interior":"GOOD","name":"CK9 T279","vin":"WMEEJ3BA8AK416959"},{"address":"Reinli St 971, 78751 Austin","coordinates":[-97.70809,30.31896,0],"engineType":"CE","exterior":"GOOD","fuel":87,"interior":"UNACCEPTABLE","name":"CK9 T329","vin":"WMEEJ3BA9AK417392"},{"address":"Downs Dr 5405, 78721 Austin","coordinates":[-97.67827,30.27881,0],"engineType":"CE","exterior":"GOOD","fuel":48,"interior":"GOOD","name":"CK9 T294","vin":"WMEEJ3BA5AK417065"},{"address":"S Interstate 35 2191, 78741 Austin","coordinates":[-97.73918,30.23436,0],"engineType":"CE","exterior":"GOOD","fuel":60,"interior":"GOOD","name":"CK9 T315","vin":"WMEEJ3BA4AK417848"},{"address":"Barton Springs Rd 331, 78704 Austin","coordinates":[-97.74789,30.25872,0],"engineType":"CE","exterior":"GOOD","fuel":36,"interior":"GOOD","name":"CK9 T199","vin":"WMEEJ3BA3AK418523"},{"address":"ACC Riverside Campus II","coordinates":[-97.70185,30.23657,0],"engineType":"CE","exterior":"GOOD","fuel":100,"interior":"GOOD","name":"CK9 T281","vin":"WMEEJ3BA4AK417428"},{"address":"N Lamar Blvd 7324, 78752 Austin","coordinates":[-97.71726,30.34125,0],"engineType":"CE","exterior":"GOOD","fuel":60,"interior":"GOOD","name":"CK9 T306","vin":"WMEEJ3BA1AK417872"},{"address":"Brazos St 771, 78701 Austin","coordinates":[-97.74079,30.26927,0],"engineType":"CE","exterior":"GOOD","fuel":27,"interior":"GOOD","name":"CK9 T126","vin":"WMEEJ3BA0AK418740"},{"address":"W 12th St 2150, 78703 Austin","coordinates":[-97.76756,30.2846,0],"engineType":"CE","exterior":"GOOD","fuel":100,"interior":"GOOD","name":"CK9 T234","vin":"WMEEJ3BA2AK417590"},{"address":"Guadalupe St 2334, 78705 Austin","coordinates":[-97.74167,30.28718,0],"engineType":"CE","exterior":"GOOD","fuel":72,"interior":"GOOD","name":"CK9 T291","vin":"WMEEJ3BA3AK417713"},{"address":"W 6th St 145, 78701 Austin","coordinates":[-97.74343,30.26818,0],"engineType":"CE","exterior":"GOOD","fuel":39,"interior":"GOOD","name":"CK9 T226","vin":"WMEEJ3BA9AK417635"},{"address":"Chimney Cnrs 7148, 78731 Austin","coordinates":[-97.76059,30.35783,0],"engineType":"CE","exterior":"GOOD","fuel":48,"interior":"GOOD","name":"CK9 T362","vin":"WMEEJ3BA7AK417651"},{"address":"Westover Rd 2683, 78703 Austin","coordinates":[-97.76404,30.30289,0],"engineType":"CE","exterior":"GOOD","fuel":100,"interior":"GOOD","name":"CK9 T231","vin":"WMEEJ3BA3AK417730"},{"address":"Reinli St 939, 78751 Austin","coordinates":[-97.70896,30.31928,0],"engineType":"CE","exterior":"GOOD","fuel":93,"interior":"GOOD","name":"CK9 T324","vin":"WMEEJ3BA6AK417558"},{"address":"The Parking Spot Overflow","coordinates":[-97.67518,30.22086,0],"engineType":"CE","exterior":"GOOD","fuel":100,"interior":"GOOD","name":"CK9 T178","vin":"WMEEJ3BA2AK418531"},{"address":"E Oltorf St 4952, 78741 Austin","coordinates":[-97.72139,30.22295,0],"engineType":"CE","exterior":"GOOD","fuel":100,"interior":"GOOD","name":"CJM 4871","vin":"WMEEJ3BA3AK418599"},{"address":"Rio Grande St 1658, 78701 Austin","coordinates":[-97.74563,30.28031,0],"engineType":"CE","exterior":"GOOD","fuel":72,"interior":"GOOD","name":"CK9 T388","vin":"WMEEJ3BA8AK418226"},{"address":"W 3rd St 851, 78701 Austin","coordinates":[-97.75268,30.2681,0],"engineType":"CE","exterior":"GOOD","fuel":39,"interior":"GOOD","name":"CK9 T272","vin":"WMEEJ3BA7AK418539"},{"address":"Hammack Dr 459, 78752 Austin","coordinates":[-97.71913,30.32921,0],"engineType":"CE","exterior":"GOOD","fuel":100,"interior":"GOOD","name":"CK9 T168","vin":"WMEEJ3BA6AK418547"},{"address":"Lee Barton Dr 270, 78704 Austin","coordinates":[-97.75726,30.2623,0],"engineType":"CE","exterior":"GOOD","fuel":48,"interior":"GOOD","name":"CK9 T245","vin":"WMEEJ3BA4AK418112"},{"address":"The Parking Spot","coordinates":[-97.67598,30.22049,0],"engineType":"CE","exterior":"GOOD","fuel":78,"interior":"GOOD","name":"CK9 T141","vin":"WMEEJ3BA8AK418484"},{"address":"Carson Rdg 6332, 78741 Austin","coordinates":[-97.706,30.22062,0],"engineType":"CE","exterior":"GOOD","fuel":39,"interior":"GOOD","name":"CK9 T170","vin":"WMEEJ3BA7AK418265"},{"address":"N Lamar Blvd 2079, 78705 Austin","coordinates":[-97.75283,30.28534,0],"engineType":"CE","exterior":"GOOD","fuel":42,"interior":"UNACCEPTABLE","name":"CK9 T406","vin":"WMEEJ3BA6AK418189"},{"address":"N Lamar Blvd 425, 78703 Austin","coordinates":[-97.75463,30.26982,0],"engineType":"CE","exterior":"GOOD","fuel":100,"interior":"GOOD","name":"CK9 T155","vin":"WMEEJ3BA8AK418274"},{"address":"Kasper St 6261, 78741 Austin","coordinates":[-97.70349,30.22592,0],"engineType":"CE","exterior":"GOOD","fuel":100,"interior":"GOOD","name":"CK9 T250","vin":"WMEEJ3BA5AK417888"},{"address":"E 7th St 247, 78701 Austin","coordinates":[-97.74063,30.26845,0],"engineType":"CE","exterior":"GOOD","fuel":100,"interior":"GOOD","name":"CK9 T327","vin":"WMEEJ3BA1AK417466"},{"address":"E 10th St 234, 78701 Austin","coordinates":[-97.73959,30.27136,0],"engineType":"CE","exterior":"GOOD","fuel":60,"interior":"GOOD","name":"CCB 0631","vin":"WMEEJ3BA0AK417197"},{"address":"Guadalupe St 2304, 78705 Austin","coordinates":[-97.74172,30.28669,0],"engineType":"CE","exterior":"GOOD","fuel":87,"interior":"GOOD","name":"CK9 T293","vin":"WMEEJ3BA0AK417099"},{"address":"Hillview Rd 3478, 78703 Austin","coordinates":[-97.76418,30.31138,0],"engineType":"CE","exterior":"GOOD","fuel":18,"interior":"GOOD","name":"CK9 T256","vin":"WMEEJ3BA2AK417234"},{"address":"S 1st St 598, 78704 Austin","coordinates":[-97.75084,30.25771,0],"engineType":"CE","exterior":"GOOD","fuel":100,"interior":"GOOD","name":"CK9 T346","vin":"WMEEJ3BA9AK417778"},{"address":"The Parking Spot Overflow","coordinates":[-97.67518,30.22086,0],"engineType":"CE","exterior":"GOOD","fuel":48,"interior":"GOOD","name":"CK9 T275","vin":"WMEEJ3BA9AK417697"},{"address":"E 4th St 203, 78701 Austin","coordinates":[-97.7417,30.26577,0],"engineType":"CE","exterior":"GOOD","fuel":100,"interior":"GOOD","name":"CK9 T157","vin":"WMEEJ3BA0AK418379"},{"address":"E 16th St 960, 78702 Austin","coordinates":[-97.72897,30.27635,0],"engineType":"CE","exterior":"GOOD","fuel":36,"interior":"GOOD","name":"CK9 T175","vin":"WMEEJ3BA5AK418720"},{"address":"W 6th St 286, 78701 Austin","coordinates":[-97.74506,30.26881,0],"engineType":"CE","exterior":"GOOD","fuel":45,"interior":"GOOD","name":"CK9 T347","vin":"WMEEJ3BA4AK417607"},{"address":"The Parking Spot","coordinates":[-97.67598,30.22049,0],"engineType":"CE","exterior":"GOOD","fuel":100,"interior":"GOOD","name":"CK9 T415","vin":"WMEEJ3BA1AK418150"},{"address":"Lee Barton Dr 272, 78704 Austin","coordinates":[-97.7573,30.26229,0],"engineType":"CE","exterior":"GOOD","fuel":81,"interior":"GOOD","name":"CK9 T251","vin":"WMEEJ3BA5AK417860"},{"address":"The Parking Spot Overflow","coordinates":[-97.67518,30.22086,0],"engineType":"CE","exterior":"GOOD","fuel":100,"interior":"GOOD","name":"CK9 T139","vin":"WMEEJ3BA4AK418756"},{"address":"S Pleasant Valley Rd 1233, 78741 Austin","coordinates":[-97.71795,30.23988,0],"engineType":"CE","exterior":"GOOD","fuel":27,"interior":"GOOD","name":"CK9 T161","vin":"WMEEJ3BA5AK418667"},{"address":"Red River St 1394, 78701 Austin","coordinates":[-97.73524,30.27457,0],"engineType":"CE","exterior":"GOOD","fuel":100,"interior":"GOOD","name":"CK9 T128","vin":"WMEEJ3BAXAK418695"},{"address":"W 9th St 131, 78701 Austin","coordinates":[-97.74217,30.27098,0],"engineType":"CE","exterior":"GOOD","fuel":100,"interior":"GOOD","name":"CK9 T190","vin":"WMEEJ3BA7AK418332"},{"address":"Greenwood Ave 1478, 78721 Austin","coordinates":[-97.69651,30.27958,0],"engineType":"CE","exterior":"GOOD","fuel":48,"interior":"GOOD","name":"CK9 T186","vin":"WMEEJ3BA9AK418607"},{"address":"Esperanza Xing 3212, 78758 Austin","coordinates":[-97.72383,30.39995,0],"engineType":"CE","exterior":"GOOD","fuel":57,"interior":"UNACCEPTABLE","name":"CK9 T187","vin":"WMEEJ3BA6AK418712"},{"address":"W 6th St 147, 78701 Austin","coordinates":[-97.74347,30.26817,0],"engineType":"CE","exterior":"UNACCEPTABLE","fuel":45,"interior":"GOOD","name":"CK9 T130","vin":"WMEEJ3BA5AK418748"},{"address":"Highland Business Center","coordinates":[-97.71235,30.32373,0],"engineType":"CE","exterior":"GOOD","fuel":39,"interior":"GOOD","name":"CK9 T260","vin":"WMEEJ3BA8AK418176"},{"address":"Kay St 3277, 78702 Austin","coordinates":[-97.69943,30.27004,0],"engineType":"CE","exterior":"UNACCEPTABLE","fuel":72,"interior":"GOOD","name":"BKT 9138","vin":"WMEEJ3BA1AK418763"},{"address":"Scales St 4156, 78723 Austin","coordinates":[-97.70434,30.29364,0],"engineType":"CE","exterior":"UNACCEPTABLE","fuel":45,"interior":"GOOD","name":"CK9 T360","vin":"WMEEJ3BA0AK418124"},{"address":"Crossing Pl 1655, 78741 Austin","coordinates":[-97.71588,30.2334,0],"engineType":"CE","exterior":"GOOD","fuel":100,"interior":"GOOD","name":"CK9 T305","vin":"WMEEJ3BAXAK417045"},{"address":"W Anderson Ln 3061, 78757 Austin","coordinates":[-97.74047,30.36044,0],"engineType":"CE","exterior":"UNACCEPTABLE","fuel":100,"interior":"UNACCEPTABLE","name":"CK9 T225","vin":"WMEEJ3BAXAK417031"},{"address":"Tillery St 1688, 78721 Austin","coordinates":[-97.70125,30.28025,0],"engineType":"CE","exterior":"GOOD","fuel":54,"interior":"GOOD","name":"CK9 T313","vin":"WMEEJ3BAXAK417367"},{"address":"W 42nd St 1183, 78756 Austin","coordinates":[-97.74177,30.31081,0],"engineType":"CE","exterior":"GOOD","fuel":45,"interior":"GOOD","name":"CK9 T300","vin":"WMEEJ3BA9AK417182"},{"address":"Woodrow Ave 7780, 78757 Austin","coordinates":[-97.72318,30.3505,0],"engineType":"CE","exterior":"GOOD","fuel":69,"interior":"GOOD","name":"CK9 T162","vin":"WMEEJ3BA5AK418507"},{"address":"W 39 1/2 St 1653, 78756 Austin","coordinates":[-97.7479,30.30993,0],"engineType":"CE","exterior":"GOOD","fuel":72,"interior":"GOOD","name":"CK9 T343","vin":"WMEEJ3BA5AK417762"},{"address":"The Parking Spot","coordinates":[-97.67598,30.22049,0],"engineType":"CE","exterior":"GOOD","fuel":45,"interior":"GOOD","name":"CK9 T330","vin":"WMEEJ3BA6AK417267"},{"address":"16th St and Congress Ave","coordinates":[-97.73915,30.27802,0],"engineType":"CE","exterior":"GOOD","fuel":57,"interior":"GOOD","name":"CK9 T310","vin":"WMEEJ3BAXAK417742"},{"address":"Woodward St 2048, 78741 Austin","coordinates":[-97.74382,30.21681,0],"engineType":"CE","exterior":"GOOD","fuel":36,"interior":"UNACCEPTABLE","name":"CK9 T269","vin":"WMEEJ3BA4AK417901"},{"address":"Taulbee Ln 1211, 78757 Austin","coordinates":[-97.71908,30.34736,0],"engineType":"CE","exterior":"UNACCEPTABLE","fuel":66,"interior":"UNACCEPTABLE","name":"CK9 T367","vin":"WMEEJ3BAXAK417675"},{"address":"University Estates","coordinates":[-97.7134,30.2377,0],"engineType":"CE","exterior":"GOOD","fuel":100,"interior":"GOOD","name":"CK9 T349","vin":"WMEEJ3BA9AK417375"},{"address":"University and MLK","coordinates":[-97.73972,30.2818,0],"engineType":"CE","exterior":"GOOD","fuel":100,"interior":"GOOD","name":"CK9 T238","vin":"WMEEJ3BA2AK417542"},{"address":"Kasper St 6259, 78741 Austin","coordinates":[-97.70354,30.22598,0],"engineType":"CE","exterior":"GOOD","fuel":75,"interior":"GOOD","name":"CK9 T378","vin":"WMEEJ3BA5AK418202"},{"address":"S Interstate 35 2214, 78704 Austin","coordinates":[-97.74094,30.23562,0],"engineType":"CE","exterior":"GOOD","fuel":24,"interior":"GOOD","name":"CK9 T196","vin":"WMEEJ3BA8AK418629"},{"address":"W 10th St 105, 78701 Austin","coordinates":[-97.74186,30.27184,0],"engineType":"CE","exterior":"GOOD","fuel":100,"interior":"GOOD","name":"CK9 T323","vin":"WMEEJ3BA8AK417884"},{"address":"Lavaca St 624, 78701 Austin","coordinates":[-97.74531,30.26903,0],"engineType":"CE","exterior":"GOOD","fuel":100,"interior":"GOOD","name":"CK9 T138","vin":"WMEEJ3BA4AK418515"},{"address":"Brazos St 628, 78701 Austin","coordinates":[-97.74137,30.26796,0],"engineType":"CE","exterior":"UNACCEPTABLE","fuel":96,"interior":"UNACCEPTABLE","name":"CK9 T317","vin":"WMEEJ3BA2AK417721"},{"address":"Crestview Station","coordinates":[-97.71947,30.33886,0],"engineType":"CE","exterior":"GOOD","fuel":18,"interior":"GOOD","name":"CK9 T219","vin":"WMEEJ3BA1AK418214"},{"address":"Dresden Cv 2919, 78723 Austin","coordinates":[-97.68215,30.30041,0],"engineType":"CE","exterior":"GOOD","fuel":100,"interior":"GOOD","name":"CK9 T271","vin":"WMEEJ3BA4AK418675"},{"address":"Neches St 816, 78701 Austin","coordinates":[-97.73759,30.26886,0],"engineType":"CE","exterior":"GOOD","fuel":84,"interior":"GOOD","name":"CK9 T167","vin":"WMEEJ3BA8AK418324"},{"address":"W Crestland Dr 613, 78752 Austin","coordinates":[-97.71422,30.34084,0],"engineType":"CE","exterior":"GOOD","fuel":75,"interior":"UNACCEPTABLE","name":"CK9 T337","vin":"WMEEJ3BA6AK417091"},{"address":"W 35th St 3833, 78703 Austin","coordinates":[-97.77335,30.31268,0],"engineType":"CE","exterior":"UNACCEPTABLE","fuel":39,"interior":"UNACCEPTABLE","name":"CK9 T335","vin":"WMEEJ3BA4AK417039"},{"address":"Guadalupe St 1228, 78701 Austin","coordinates":[-97.74397,30.27525,0],"engineType":"CE","exterior":"GOOD","fuel":100,"interior":"GOOD","name":"CK9 T336","vin":"WMEEJ3BA1AK417659"},{"address":"The Parking Spot","coordinates":[-97.67598,30.22049,0],"engineType":"CE","exterior":"GOOD","fuel":60,"interior":"GOOD","name":"CK9 T401","vin":"WMEEJ3BA9AK416999"},{"address":"Dillard Cir 6156, 78752 Austin","coordinates":[-97.71752,30.32691,0],"engineType":"CE","exterior":"GOOD","fuel":60,"interior":"GOOD","name":"CK9 T283","vin":"WMEEJ3BA3AK417209"},{"address":"Jack & Adam's Bicycles","coordinates":[-97.75749,30.26082,0],"engineType":"CE","exterior":"UNACCEPTABLE","fuel":100,"interior":"UNACCEPTABLE","name":"CK9 T304","vin":"WMEEJ3BA8AK417836"},{"address":"9th and Colorado","coordinates":[-97.74325,30.27106,0],"engineType":"CE","exterior":"GOOD","fuel":100,"interior":"UNACCEPTABLE","name":"CK9 T255","vin":"WMEEJ3BA2AK417878"},{"address":"Gloucester Ln 5660, 78723 Austin","coordinates":[-97.67929,30.30316,0],"engineType":"CE","exterior":"GOOD","fuel":100,"interior":"GOOD","name":"CK9 T230","vin":"WMEEJ3BA7AK417598"},{"address":"Hart Ln 7122, 78731 Austin","coordinates":[-97.75656,30.35544,0],"engineType":"CE","exterior":"GOOD","fuel":30,"interior":"GOOD","name":"CK9 T402","vin":"WMEEJ3BA9AK417683"},{"address":"Hart Ln 7409, 78731 Austin","coordinates":[-97.75417,30.35793,0],"engineType":"CE","exterior":"GOOD","fuel":39,"interior":"GOOD","name":"CK9 T314","vin":"WMEEJ3BA2AK417766"},{"address":"Palo Pinto Dr 1946, 78723 Austin","coordinates":[-97.70096,30.28435,0],"engineType":"CE","exterior":"UNACCEPTABLE","fuel":96,"interior":"UNACCEPTABLE","name":"CK9 T227","vin":"WMEEJ3BA4AK417770"},{"address":"W 6th St 439, 78701 Austin","coordinates":[-97.74671,30.26912,0],"engineType":"CE","exterior":"GOOD","fuel":36,"interior":"GOOD","name":"CK9 T189","vin":"WMEEJ3BA0AK417667"},{"address":"Gault St 7808, 78757 Austin","coordinates":[-97.71897,30.34971,0],"engineType":"CE","exterior":"UNACCEPTABLE","fuel":90,"interior":"UNACCEPTABLE","name":"CK9 T334","vin":"WMEEJ3BA9AK418137"},{"address":"E 8th St 189, 78701 Austin","coordinates":[-97.74091,30.26957,0],"engineType":"CE","exterior":"GOOD","fuel":100,"interior":"GOOD","name":"CK9 T357","vin":"WMEEJ3BAXAK417482"},{"address":"Far West Blvd 3426, 78731 Austin","coordinates":[-97.75042,30.35288,0],"engineType":"CE","exterior":"GOOD","fuel":66,"interior":"UNACCEPTABLE","name":"CK9 T292","vin":"WMEEJ3BA0AK417619"},{"address":"W 42nd St 1335, 78756 Austin","coordinates":[-97.74335,30.31157,0],"engineType":"CE","exterior":"GOOD","fuel":45,"interior":"GOOD","name":"CK9 T224","vin":"WMEEJ3BA3AK417856"},{"address":"Cromwell Cir 2300, 78741 Austin","coordinates":[-97.71915,30.22888,0],"engineType":"CE","exterior":"GOOD","fuel":57,"interior":"GOOD","name":"BZ6 B665","vin":"WMEEJ3BA8AK374759"},{"address":"W 35th St 3827, 78703 Austin","coordinates":[-97.77322,30.3127,0],"engineType":"CE","exterior":"GOOD","fuel":96,"interior":"GOOD","name":"BZ6 B664","vin":"WMEEJ3BA9AK374737"},{"address":"Arroyo Seco 7248, 78757 Austin","charging":false,"coordinates":[-97.72553,30.34372,0],"engineType":"ED","exterior":"GOOD","fuel":33,"interior":"GOOD","name":"BJ5 C847","vin":"WMEEJ9BA4BK456167"},{"address":"Alpine Rd E 385, 78704 Austin","charging":false,"coordinates":[-97.75841,30.22522,0],"engineType":"ED","exterior":"GOOD","fuel":66,"interior":"GOOD","name":"BCF 5584","vin":"WMEEJ9BAXBK487780"},{"address":"Lynndale Dr 4920, 78756 Austin","charging":false,"coordinates":[-97.7372,30.32005,0],"engineType":"ED","exterior":"UNACCEPTABLE","fuel":81,"interior":"GOOD","name":"BCF 5537","vin":"WMEEJ9BAXBK434528"},{"address":"E 13th St 872, 78702 Austin","charging":false,"coordinates":[-97.73052,30.27316,0],"engineType":"ED","exterior":"GOOD","fuel":68,"interior":"GOOD","name":"BCF 5536","vin":"WMEEJ9BA6BK476257"},{"address":"S Pleasant Valley Rd 1249, 78741 Austin","charging":false,"coordinates":[-97.71802,30.23986,0],"engineType":"ED","exterior":"GOOD","fuel":83,"interior":"GOOD","name":"BCF 5538","vin":"WMEEJ9BA5BK431987"},{"address":"Lavaca St 629, 78701 Austin","charging":false,"coordinates":[-97.74508,30.26902,0],"engineType":"ED","exterior":"GOOD","fuel":58,"interior":"GOOD","name":"BCF 5583","vin":"WMEEJ9BA7BK471388"},{"address":"Gables 5th St Commons Charging Station - Garage","charging":true,"coordinates":[-97.76488,30.27415,0],"engineType":"ED","exterior":"GOOD","fuel":47,"interior":"GOOD","name":"BCF 5585","vin":"WMEEJ9BA3BK431616"},{"address":"Springdale Rd 1835, 78721 Austin","charging":false,"coordinates":[-97.68274,30.28542,0],"engineType":"ED","exterior":"GOOD","fuel":45,"interior":"GOOD","name":"BCF 5586","vin":"WMEEJ9BA2BK436841"},{"address":"Woodward St 1624, 78741 Austin","charging":false,"coordinates":[-97.74604,30.22273,0],"engineType":"ED","exterior":"GOOD","fuel":96,"interior":"GOOD","name":"BCF 5587","vin":"WMEEJ9BA6BK447857"}]}